[
    {
        "name": "RU Алатырь",
        "from": {
            "lon": 46.578215,
            "lat": 54.848954
        },
        "to": {
            "lon": 46.566979,
            "lat": 54.829486
        },
        "important": false,
        "avoid_types": []
    },
    {
        "name": "RU Алушта",
        "from": {
            "lon": 34.417297,
            "lat": 44.689036
        },
        "to": {
            "lon": 34.400002,
            "lat": 44.674819
        },
        "important": false,
        "avoid_types": []
    },
    {
        "name": "RU Арзамас",
        "from": {
            "lon": 43.791988,
            "lat": 55.409423
        },
        "to": {
            "lon": 43.816493,
            "lat": 55.385366
        },
        "important": false,
        "avoid_types": []
    },
    {
        "name": "RU Астрахань",
        "from": {
            "lon": 48.013304,
            "lat": 46.333277
        },
        "to": {
            "lon": 48.049525,
            "lat": 46.345879
        },
        "important": false,
        "avoid_types": []
    },
    {
        "name": "RU Балаково",
        "from": {
            "lon": 47.831929,
            "lat": 52.034085
        },
        "to": {
            "lon": 47.790469,
            "lat": 52.003468
        },
        "important": false,
        "avoid_types": []
    },
    {
        "name": "RU Балашов",
        "from": {
            "lon": 43.141101,
            "lat": 51.557979
        },
        "to": {
            "lon": 43.179124,
            "lat": 51.544067
        },
        "important": false,
        "avoid_types": []
    },
    {
        "name": "RU Барнаул",
        "from": {
            "lon": 83.797002,
            "lat": 53.329548
        },
        "to": {
            "lon": 83.735872,
            "lat": 53.386351
        },
        "important": false,
        "avoid_types": []
    },
    {
        "name": "RU Брянск",
        "from": {
            "lon": 34.362116,
            "lat": 53.232017
        },
        "to": {
            "lon": 34.34761,
            "lat": 53.263626
        },
        "important": false,
        "avoid_types": []
    },
    {
        "name": "RU Бузулук",
        "from": {
            "lon": 52.260198,
            "lat": 52.79672
        },
        "to": {
            "lon": 52.233676,
            "lat": 52.779132
        },
        "important": false,
        "avoid_types": []
    },
    {
        "name": "RU Великий Новгород",
        "from": {
            "lon": 31.255653,
            "lat": 58.522092
        },
        "to": {
            "lon": 31.297882,
            "lat": 58.533494
        },
        "important": false,
        "avoid_types": []
    },
    {
        "name": "RU Владивосток",
        "from": {
            "lon": 131.883687,
            "lat": 43.116143
        },
        "to": {
            "lon": 131.935958,
            "lat": 43.112999
        },
        "important": false,
        "avoid_types": []
    },
    {
        "name": "RU Владикавказ",
        "from": {
            "lon": 44.681888,
            "lat": 43.020603
        },
        "to": {
            "lon": 44.653827,
            "lat": 43.051847
        },
        "important": false,
        "avoid_types": []
    },
    {
        "name": "RU Владимир",
        "from": {
            "lon": 40.420612,
            "lat": 56.131141
        },
        "to": {
            "lon": 40.439667,
            "lat": 56.142835
        },
        "important": false,
        "avoid_types": []
    },
    {
        "name": "RU Волгоград (СТ)",
        "from": {
            "lon": 44.470994,
            "lat": 48.680745
        },
        "to": {
            "lon": 44.530156,
            "lat": 48.717646
        },
        "important": false,
        "avoid_types": []
    },
    {
        "name": "RU Волгоград",
        "from": {
            "lon": 44.516939,
            "lat": 48.707103
        },
        "to": {
            "lon": 44.603109,
            "lat": 48.800725
        },
        "important": false,
        "avoid_types": []
    },
    {
        "name": "RU Вологда",
        "from": {
            "lon": 39.883784,
            "lat": 59.206991
        },
        "to": {
            "lon": 39.899897,
            "lat": 59.232793
        },
        "important": false,
        "avoid_types": []
    },
    {
        "name": "RU Воронеж",
        "from": {
            "lon": 39.207896,
            "lat": 51.681469
        },
        "to": {
            "lon": 39.264887,
            "lat": 51.68403
        },
        "important": false,
        "avoid_types": []
    },
    {
        "name": "RU Воткинск",
        "from": {
            "lon": 53.939036,
            "lat": 57.034128
        },
        "to": {
            "lon": 53.997744,
            "lat": 57.065282
        },
        "important": false,
        "avoid_types": []
    },
    {
        "name": "RU Вязьма",
        "from": {
            "lon": 34.284805,
            "lat": 55.209956
        },
        "to": {
            "lon": 34.316262,
            "lat": 55.198445
        },
        "important": false,
        "avoid_types": []
    },
    {
        "name": "RU Галич",
        "from": {
            "lon": 42.344453,
            "lat": 58.368426
        },
        "to": {
            "lon": 42.37388,
            "lat": 58.394907
        },
        "important": false,
        "avoid_types": []
    },
    {
        "name": "RU Джанкой",
        "from": {
            "lon": 34.419786,
            "lat": 45.725439
        },
        "to": {
            "lon": 34.383703,
            "lat": 45.718998
        },
        "important": false,
        "avoid_types": []
    },
    {
        "name": "RU Евпатория",
        "from": {
            "lon": 33.341372,
            "lat": 45.186531
        },
        "to": {
            "lon": 33.370726,
            "lat": 45.21044
        },
        "important": false,
        "avoid_types": []
    },
    {
        "name": "RU Ейск",
        "from": {
            "lon": 38.281275,
            "lat": 46.715617
        },
        "to": {
            "lon": 38.262907,
            "lat": 46.673214
        },
        "important": false,
        "avoid_types": []
    },
    {
        "name": "RU Екатеринбург (метро)",
        "from": {
            "lon": 60.610604,
            "lat": 56.808453
        },
        "to": {
            "lon": 60.600541,
            "lat": 56.858045
        },
        "important": true,
        "avoid_types": [
            "bus",
            "tramway",
            "trolleybus",
            "minibus"
        ]
    },
    {
        "name": "RU Екатеринбург (наземка)",
        "from": {
            "lon": 60.555844,
            "lat": 56.819657
        },
        "to": {
            "lon": 60.634186,
            "lat": 56.838103
        },
        "important": true,
        "avoid_types": [
            "underground"
        ]
    },
    {
        "name": "RU Жигулёвск",
        "from": {
            "lon": 49.51321,
            "lat": 53.397602
        },
        "to": {
            "lon": 49.476904,
            "lat": 53.408886
        },
        "important": false,
        "avoid_types": []
    },
    {
        "name": "RU Заволжье",
        "from": {
            "lon": 43.38587,
            "lat": 56.641874
        },
        "to": {
            "lon": 43.466744,
            "lat": 56.680218
        },
        "important": false,
        "avoid_types": []
    },
    {
        "name": "RU Иваново",
        "from": {
            "lon": 40.978841,
            "lat": 57.016356
        },
        "to": {
            "lon": 40.981416,
            "lat": 56.984692
        },
        "important": false,
        "avoid_types": []
    },
    {
        "name": "RU Ижевск",
        "from": {
            "lon": 53.208929,
            "lat": 56.861125
        },
        "to": {
            "lon": 53.190218,
            "lat": 56.811349
        },
        "important": false,
        "avoid_types": []
    },
    {
        "name": "RU Иркутск",
        "from": {
            "lon": 104.259224,
            "lat": 52.28214
        },
        "to": {
            "lon": 104.294501,
            "lat": 52.290194
        },
        "important": false,
        "avoid_types": []
    },
    {
        "name": "RU Казань (метро)",
        "from": {
            "lon": 49.085204,
            "lat": 55.84267
        },
        "to": {
            "lon": 49.165438,
            "lat": 55.764375
        },
        "important": true,
        "avoid_types": [
            "bus",
            "tramway",
            "trolleybus",
            "minibus"
        ]
    },
    {
        "name": "RU Казань (наземка)",
        "from": {
            "lon": 49.125441,
            "lat": 55.767666
        },
        "to": {
            "lon": 49.153421,
            "lat": 55.792674
        },
        "important": true,
        "avoid_types": [
            "underground"
        ]
    },
    {
        "name": "RU Калининград",
        "from": {
            "lon": 20.49952,
            "lat": 54.695657
        },
        "to": {
            "lon": 20.475337,
            "lat": 54.720395
        },
        "important": false,
        "avoid_types": []
    },
    {
        "name": "RU Калуга",
        "from": {
            "lon": 36.253194,
            "lat": 54.514923
        },
        "to": {
            "lon": 36.208921,
            "lat": 54.491196
        },
        "important": false,
        "avoid_types": []
    },
    {
        "name": "RU Каменск-Уральский",
        "from": {
            "lon": 61.922422,
            "lat": 56.426533
        },
        "to": {
            "lon": 61.942506,
            "lat": 56.384988
        },
        "important": false,
        "avoid_types": []
    },
    {
        "name": "RU Кем. обл. Новокузнецк",
        "from": {
            "lon": 87.119814,
            "lat": 53.747052
        },
        "to": {
            "lon": 87.126724,
            "lat": 53.765973
        },
        "important": false,
        "avoid_types": []
    },
    {
        "name": "RU Кемерово",
        "from": {
            "lon": 86.061693,
            "lat": 55.344126
        },
        "to": {
            "lon": 86.176878,
            "lat": 55.333559
        },
        "important": false,
        "avoid_types": []
    },
    {
        "name": "RU Керчь",
        "from": {
            "lon": 36.523103,
            "lat": 45.360485
        },
        "to": {
            "lon": 36.466712,
            "lat": 45.360274
        },
        "important": false,
        "avoid_types": []
    },
    {
        "name": "RU Киров",
        "from": {
            "lon": 49.656687,
            "lat": 58.614755
        },
        "to": {
            "lon": 49.647074,
            "lat": 58.580704
        },
        "important": false,
        "avoid_types": []
    },
    {
        "name": "RU Ковров",
        "from": {
            "lon": 41.294171,
            "lat": 56.340186
        },
        "to": {
            "lon": 41.314428,
            "lat": 56.380494
        },
        "important": false,
        "avoid_types": []
    },
    {
        "name": "RU Кострома",
        "from": {
            "lon": 40.9788,
            "lat": 57.759306
        },
        "to": {
            "lon": 40.926358,
            "lat": 57.767769
        },
        "important": false,
        "avoid_types": []
    },
    {
        "name": "RU Краснодар",
        "from": {
            "lon": 38.981256,
            "lat": 45.020956
        },
        "to": {
            "lon": 38.972845,
            "lat": 45.070121
        },
        "important": false,
        "avoid_types": []
    },
    {
        "name": "RU Красноярск",
        "from": {
            "lon": 92.837519,
            "lat": 56.011943
        },
        "to": {
            "lon": 92.960944,
            "lat": 56.009731
        },
        "important": true,
        "avoid_types": []
    },
    {
        "name": "RU Курган",
        "from": {
            "lon": 65.322417,
            "lat": 55.441277
        },
        "to": {
            "lon": 65.369108,
            "lat": 55.444107
        },
        "important": false,
        "avoid_types": []
    },
    {
        "name": "RU Курск",
        "from": {
            "lon": 36.225172,
            "lat": 51.750462
        },
        "to": {
            "lon": 36.166635,
            "lat": 51.720832
        },
        "important": false,
        "avoid_types": []
    },
    {
        "name": "RU Липецк",
        "from": {
            "lon": 39.568428,
            "lat": 52.623019
        },
        "to": {
            "lon": 39.620785,
            "lat": 52.576298
        },
        "important": false,
        "avoid_types": []
    },
    {
        "name": "RU Магнитогорск",
        "from": {
            "lon": 58.981441,
            "lat": 53.437274
        },
        "to": {
            "lon": 58.970454,
            "lat": 53.379782
        },
        "important": false,
        "avoid_types": []
    },
    {
        "name": "RU Махачкала",
        "from": {
            "lon": 47.504568,
            "lat": 42.985122
        },
        "to": {
            "lon": 47.495127,
            "lat": 42.969713
        },
        "important": false,
        "avoid_types": []
    },
    {
        "name": "RU Мос. область",
        "from": {
            "lon": 36.712817,
            "lat": 56.33352
        },
        "to": {
            "lon": 36.569766,
            "lat": 56.318168
        },
        "important": false,
        "avoid_types": []
    },
    {
        "name": "RU Москва (метро)",
        "from": {
            "lon": 37.535701,
            "lat": 55.693167
        },
        "to": {
            "lon": 37.676292,
            "lat": 55.718949
        },
        "important": true,
        "avoid_types": [
            "bus",
            "tramway",
            "trolleybus",
            "minibus"
        ]
    },
    {
        "name": "RU Москва (наземка)",
        "from": {
            "lon": 37.642303,
            "lat": 55.82162
        },
        "to": {
            "lon": 37.720752,
            "lat": 55.878981
        },
        "important": true,
        "avoid_types": [
            "underground"
        ]
    },
    {
        "name": "RU Москва (электрички)",
        "from": {
            "lon": 37.651505,
            "lat": 55.800831
        },
        "to": {
            "lon": 37.762294,
            "lat": 55.916211
        },
        "important": true,
        "avoid_types": [
            "underground",
            "bus",
            "trolleybus",
            "tramway",
            "minibus"
        ]
    },
    {
        "name": "RU Мурманск",
        "from": {
            "lon": 33.106347,
            "lat": 69.013024
        },
        "to": {
            "lon": 33.074074,
            "lat": 68.96812
        },
        "important": false,
        "avoid_types": []
    },
    {
        "name": "RU Набережные Челны",
        "from": {
            "lon": 52.298836,
            "lat": 55.684024
        },
        "to": {
            "lon": 52.41814,
            "lat": 55.749142
        },
        "important": false,
        "avoid_types": []
    },
    {
        "name": "RU Нижний Новгород (метро)",
        "from": {
            "lon": 43.994671,
            "lat": 56.313973
        },
        "to": {
            "lon": 43.913583,
            "lat": 56.266651
        },
        "important": false,
        "avoid_types": [
            "bus",
            "trolleybus",
            "tramway",
            "minibus"
        ]
    },
    {
        "name": "RU Нижний Новгород (наземка)",
        "from": {
            "lon": 43.853609,
            "lat": 56.258029
        },
        "to": {
            "lon": 43.953429,
            "lat": 56.235571
        },
        "important": false,
        "avoid_types": [
            "underground"
        ]
    },
    {
        "name": "RU Нижний Новгород (электрички)",
        "from": {
            "lon": 43.944881,
            "lat": 56.321709
        },
        "to": {
            "lon": 43.454273,
            "lat": 56.228855
        },
        "important": false,
        "avoid_types": [
            "bus",
            "trolleybus",
            "tramway",
            "minibus",
            "underground"
        ]
    },
    {
        "name": "RU Новомосковск",
        "from": {
            "lon": 38.295526,
            "lat": 54.004644
        },
        "to": {
            "lon": 38.258104,
            "lat": 54.032646
        },
        "important": false,
        "avoid_types": []
    },
    {
        "name": "RU Новосибирск (метро)",
        "from": {
            "lon": 82.976103,
            "lat": 55.037874
        },
        "to": {
            "lon": 82.897319,
            "lat": 55.035982
        },
        "important": true,
        "avoid_types": [
            "bus",
            "trolleybus",
            "tramway",
            "minibus"
        ]
    },
    {
        "name": "RU Новосибирск (наземка)",
        "from": {
            "lon": 82.964729,
            "lat": 55.081197
        },
        "to": {
            "lon": 82.943192,
            "lat": 55.038632
        },
        "important": true,
        "avoid_types": [
            "underground"
        ]
    },
    {
        "name": "RU Новосибирск (электрички)",
        "from": {
            "lon": 82.895396,
            "lat": 55.035131
        },
        "to": {
            "lon": 82.725871,
            "lat": 54.99243
        },
        "important": false,
        "avoid_types": [
            "bus",
            "trolleybus",
            "tramway",
            "minibus",
            "underground"
        ]
    },
    {
        "name": "RU Обнинск",
        "from": {
            "lon": 36.586531,
            "lat": 55.112005
        },
        "to": {
            "lon": 36.617139,
            "lat": 55.091593
        },
        "important": false,
        "avoid_types": []
    },
    {
        "name": "RU Омск",
        "from": {
            "lon": 73.364634,
            "lat": 54.995001
        },
        "to": {
            "lon": 73.380532,
            "lat": 54.93476
        },
        "important": true,
        "avoid_types": []
    },
    {
        "name": "RU Оренбург",
        "from": {
            "lon": 55.098938,
            "lat": 51.760759
        },
        "to": {
            "lon": 55.10735,
            "lat": 51.818457
        },
        "important": false,
        "avoid_types": []
    },
    {
        "name": "RU Очёр",
        "from": {
            "lon": 54.673295,
            "lat": 57.872274
        },
        "to": {
            "lon": 54.734276,
            "lat": 57.898257
        },
        "important": false,
        "avoid_types": []
    },
    {
        "name": "RU Пенза",
        "from": {
            "lon": 45.011442,
            "lat": 53.201897
        },
        "to": {
            "lon": 45.012644,
            "lat": 53.17509
        },
        "important": false,
        "avoid_types": []
    },
    {
        "name": "RU Первомайск",
        "from": {
            "lon": 43.789718,
            "lat": 54.879864
        },
        "to": {
            "lon": 43.82589,
            "lat": 54.863516
        },
        "important": false,
        "avoid_types": []
    },
    {
        "name": "RU Пермь",
        "from": {
            "lon": 56.226846,
            "lat": 58.009168
        },
        "to": {
            "lon": 56.299516,
            "lat": 58.001168
        },
        "important": false,
        "avoid_types": []
    },
    {
        "name": "RU Петрозаводск",
        "from": {
            "lon": 34.327033,
            "lat": 61.809099
        },
        "to": {
            "lon": 34.34645,
            "lat": 61.785283
        },
        "important": false,
        "avoid_types": []
    },
    {
        "name": "RU Псков",
        "from": {
            "lon": 28.360448,
            "lat": 57.80459
        },
        "to": {
            "lon": 28.333283,
            "lat": 57.822913
        },
        "important": false,
        "avoid_types": []
    },
    {
        "name": "RU Пятигорск",
        "from": {
            "lon": 43.074959,
            "lat": 44.037466
        },
        "to": {
            "lon": 43.002003,
            "lat": 44.048053
        },
        "important": false,
        "avoid_types": []
    },
    {
        "name": "RU Ростов-на-Дону",
        "from": {
            "lon": 39.692804,
            "lat": 47.219828
        },
        "to": {
            "lon": 39.765438,
            "lat": 47.24305
        },
        "important": false,
        "avoid_types": []
    },
    {
        "name": "RU Рыбинск",
        "from": {
            "lon": 38.834046,
            "lat": 58.042388
        },
        "to": {
            "lon": 38.859677,
            "lat": 58.047711
        },
        "important": false,
        "avoid_types": []
    },
    {
        "name": "RU Рязань",
        "from": {
            "lon": 39.716126,
            "lat": 54.628995
        },
        "to": {
            "lon": 39.758956,
            "lat": 54.632107
        },
        "important": false,
        "avoid_types": []
    },
    {
        "name": "RU СПб (метро)",
        "from": {
            "lon": 30.260289,
            "lat": 59.868563
        },
        "to": {
            "lon": 30.334482,
            "lat": 60.067574
        },
        "important": true,
        "avoid_types": [
            "bus",
            "tramway",
            "trolleybus",
            "minibus"
        ]
    },
    {
        "name": "RU СПб (наземка)",
        "from": {
            "lon": 30.147075,
            "lat": 59.846794
        },
        "to": {
            "lon": 30.250758,
            "lat": 59.843426
        },
        "important": true,
        "avoid_types": [
            "underground"
        ]
    },
    {
        "name": "RU СПб (электрички)",
        "from": {
            "lon": 30.361368,
            "lat": 59.928168
        },
        "to": {
            "lon": 30.613967,
            "lat": 59.7494
        },
        "important": true,
        "avoid_types": [
            "bus",
            "trolleybus",
            "tramway",
            "minibus",
            "underground"
        ]
    },
    {
        "name": "RU Салехард",
        "from": {
            "lon": 66.59444,
            "lat": 66.525625
        },
        "to": {
            "lon": 66.562125,
            "lat": 66.562186
        },
        "important": false,
        "avoid_types": []
    },
    {
        "name": "RU Самара (метро)",
        "from": {
            "lon": 50.132864,
            "lat": 53.209268
        },
        "to": {
            "lon": 50.235513,
            "lat": 53.206752
        },
        "important": true,
        "avoid_types": []
    },
    {
        "name": "RU Самара (наземка)",
        "from": {
            "lon": 50.121216,
            "lat": 53.18681
        },
        "to": {
            "lon": 50.187509,
            "lat": 53.217938
        },
        "important": true,
        "avoid_types": []
    },
    {
        "name": "RU Саранск",
        "from": {
            "lon": 45.189043,
            "lat": 54.196029
        },
        "to": {
            "lon": 45.167757,
            "lat": 54.170303
        },
        "important": false,
        "avoid_types": []
    },
    {
        "name": "RU Сарапул",
        "from": {
            "lon": 53.785185,
            "lat": 56.430234
        },
        "to": {
            "lon": 53.805369,
            "lat": 56.477439
        },
        "important": false,
        "avoid_types": []
    },
    {
        "name": "RU Саратов",
        "from": {
            "lon": 46.001094,
            "lat": 51.541326
        },
        "to": {
            "lon": 46.051992,
            "lat": 51.537204
        },
        "important": false,
        "avoid_types": []
    },
    {
        "name": "RU Севастополь",
        "from": {
            "lon": 33.525432,
            "lat": 44.616687
        },
        "to": {
            "lon": 33.524177,
            "lat": 44.566813
        },
        "important": false,
        "avoid_types": []
    },
    {
        "name": "RU Симферополь",
        "from": {
            "lon": 34.109711,
            "lat": 44.958287
        },
        "to": {
            "lon": 34.092502,
            "lat": 44.922534
        },
        "important": false,
        "avoid_types": []
    },
    {
        "name": "RU Смоленск",
        "from": {
            "lon": 32.037611,
            "lat": 54.795416
        },
        "to": {
            "lon": 32.046408,
            "lat": 54.768926
        },
        "important": false,
        "avoid_types": []
    },
    {
        "name": "RU Сочи",
        "from": {
            "lon": 39.722316,
            "lat": 43.582882
        },
        "to": {
            "lon": 39.752614,
            "lat": 43.566283
        },
        "important": false,
        "avoid_types": []
    },
    {
        "name": "RU Ставрополь",
        "from": {
            "lon": 41.938244,
            "lat": 45.031328
        },
        "to": {
            "lon": 41.983863,
            "lat": 45.049371
        },
        "important": false,
        "avoid_types": []
    },
    {
        "name": "RU Судак",
        "from": {
            "lon": 34.969733,
            "lat": 44.860535
        },
        "to": {
            "lon": 34.989861,
            "lat": 44.853576
        },
        "important": false,
        "avoid_types": []
    },
    {
        "name": "RU Таганрог",
        "from": {
            "lon": 38.881436,
            "lat": 47.198055
        },
        "to": {
            "lon": 38.906947,
            "lat": 47.220735
        },
        "important": false,
        "avoid_types": []
    },
    {
        "name": "RU Тверь",
        "from": {
            "lon": 35.911896,
            "lat": 56.859611
        },
        "to": {
            "lon": 35.891604,
            "lat": 56.823633
        },
        "important": false,
        "avoid_types": []
    },
    {
        "name": "RU Тобольск",
        "from": {
            "lon": 68.255142,
            "lat": 58.196874
        },
        "to": {
            "lon": 68.277114,
            "lat": 58.227857
        },
        "important": false,
        "avoid_types": []
    },
    {
        "name": "RU Тольятти",
        "from": {
            "lon": 49.416348,
            "lat": 53.508578
        },
        "to": {
            "lon": 49.299275,
            "lat": 53.535994
        },
        "important": false,
        "avoid_types": []
    },
    {
        "name": "RU Томск",
        "from": {
            "lon": 84.975108,
            "lat": 56.455336
        },
        "to": {
            "lon": 84.967008,
            "lat": 56.498099
        },
        "important": false,
        "avoid_types": []
    },
    {
        "name": "RU Тула",
        "from": {
            "lon": 37.617752,
            "lat": 54.193033
        },
        "to": {
            "lon": 37.587183,
            "lat": 54.163881
        },
        "important": false,
        "avoid_types": []
    },
    {
        "name": "RU Тюмень",
        "from": {
            "lon": 65.549287,
            "lat": 57.148137
        },
        "to": {
            "lon": 65.501565,
            "lat": 57.163436
        },
        "important": false,
        "avoid_types": []
    },
    {
        "name": "RU Ульяновск",
        "from": {
            "lon": 48.349359,
            "lat": 54.306802
        },
        "to": {
            "lon": 48.541963,
            "lat": 54.337709
        },
        "important": false,
        "avoid_types": []
    },
    {
        "name": "RU Усть-Лабинск",
        "from": {
            "lon": 39.653365,
            "lat": 45.217551
        },
        "to": {
            "lon": 39.724003,
            "lat": 45.219431
        },
        "important": false,
        "avoid_types": []
    },
    {
        "name": "RU Уфа",
        "from": {
            "lon": 55.958727,
            "lat": 54.735147
        },
        "to": {
            "lon": 56.037257,
            "lat": 54.781213
        },
        "important": true,
        "avoid_types": []
    },
    {
        "name": "RU Феодосия",
        "from": {
            "lon": 35.379693,
            "lat": 45.029125
        },
        "to": {
            "lon": 35.385616,
            "lat": 45.054348
        },
        "important": false,
        "avoid_types": []
    },
    {
        "name": "RU Хабаровск",
        "from": {
            "lon": 135.060016,
            "lat": 48.484099
        },
        "to": {
            "lon": 135.102074,
            "lat": 48.45539
        },
        "important": false,
        "avoid_types": []
    },
    {
        "name": "RU Чайковский",
        "from": {
            "lon": 54.155072,
            "lat": 56.782869
        },
        "to": {
            "lon": 54.094303,
            "lat": 56.75954
        },
        "important": false,
        "avoid_types": []
    },
    {
        "name": "RU Чебоксары",
        "from": {
            "lon": 47.190401,
            "lat": 56.137966
        },
        "to": {
            "lon": 47.246019,
            "lat": 56.131975
        },
        "important": false,
        "avoid_types": []
    },
    {
        "name": "RU Челябинск",
        "from": {
            "lon": 61.413541,
            "lat": 55.141196
        },
        "to": {
            "lon": 61.38702,
            "lat": 55.183996
        },
        "important": false,
        "avoid_types": []
    },
    {
        "name": "RU Череповец",
        "from": {
            "lon": 37.906956,
            "lat": 59.127447
        },
        "to": {
            "lon": 37.993588,
            "lat": 59.121909
        },
        "important": false,
        "avoid_types": []
    },
    {
        "name": "RU Чита",
        "from": {
            "lon": 113.517163,
            "lat": 52.02266
        },
        "to": {
            "lon": 113.481972,
            "lat": 52.067011
        },
        "important": false,
        "avoid_types": []
    },
    {
        "name": "RU Ялта",
        "from": {
            "lon": 34.150952,
            "lat": 44.483178
        },
        "to": {
            "lon": 34.187258,
            "lat": 44.50855
        },
        "important": false,
        "avoid_types": []
    },
    {
        "name": "RU Ярославль",
        "from": {
            "lon": 39.836624,
            "lat": 57.625496
        },
        "to": {
            "lon": 39.8822,
            "lat": 57.643036
        },
        "important": false,
        "avoid_types": []
    },
    {
        "name": "BY Барановичи",
        "from": {
            "lon": 26.045736,
            "lat": 53.128297
        },
        "to": {
            "lon": 25.992726,
            "lat": 53.12956
        },
        "important": false,
        "avoid_types": []
    },
    {
        "name": "BY Бобруйск",
        "from": {
            "lon": 29.197813,
            "lat": 53.178049
        },
        "to": {
            "lon": 29.225708,
            "lat": 53.130634
        },
        "important": false,
        "avoid_types": []
    },
    {
        "name": "BY Брест",
        "from": {
            "lon": 23.69161,
            "lat": 52.091087
        },
        "to": {
            "lon": 23.771818,
            "lat": 52.083432
        },
        "important": false,
        "avoid_types": []
    },
    {
        "name": "BY Вилейка",
        "from": {
            "lon": 26.891914,
            "lat": 54.481224
        },
        "to": {
            "lon": 26.929551,
            "lat": 54.503309
        },
        "important": false,
        "avoid_types": []
    },
    {
        "name": "BY Витебск",
        "from": {
            "lon": 30.188536,
            "lat": 55.194494
        },
        "to": {
            "lon": 30.206337,
            "lat": 55.192672
        },
        "important": false,
        "avoid_types": []
    },
    {
        "name": "BY Гомель",
        "from": {
            "lon": 30.992433,
            "lat": 52.431588
        },
        "to": {
            "lon": 30.991488,
            "lat": 52.456973
        },
        "important": false,
        "avoid_types": []
    },
    {
        "name": "BY Гродно",
        "from": {
            "lon": 23.846282,
            "lat": 53.686391
        },
        "to": {
            "lon": 23.822078,
            "lat": 53.668657
        },
        "important": false,
        "avoid_types": []
    },
    {
        "name": "BY Кобрин",
        "from": {
            "lon": 24.360286,
            "lat": 52.193732
        },
        "to": {
            "lon": 24.349248,
            "lat": 52.228827
        },
        "important": false,
        "avoid_types": []
    },
    {
        "name": "BY Лида",
        "from": {
            "lon": 25.313715,
            "lat": 53.875995
        },
        "to": {
            "lon": 25.29715,
            "lat": 53.898863
        },
        "important": false,
        "avoid_types": []
    },
    {
        "name": "BY Минск (метро)",
        "from": {
            "lon": 27.686921,
            "lat": 53.945162
        },
        "to": {
            "lon": 27.574931,
            "lat": 53.90896
        },
        "important": true,
        "avoid_types": [
            "bus",
            "tramway",
            "trolleybus",
            "minibus"
        ]
    },
    {
        "name": "BY Минск (наземка)",
        "from": {
            "lon": 27.574931,
            "lat": 53.90896
        },
        "to": {
            "lon": 27.49567,
            "lat": 53.909615
        },
        "important": true,
        "avoid_types": [
            "underground"
        ]
    },
    {
        "name": "BY Могилёв",
        "from": {
            "lon": 30.341181,
            "lat": 53.926883
        },
        "to": {
            "lon": 30.338348,
            "lat": 53.878021
        },
        "important": false,
        "avoid_types": []
    },
    {
        "name": "BY Мозырь (СТ)",
        "from": {
            "lon": 29.208879,
            "lat": 52.048966
        },
        "to": {
            "lon": 29.25061,
            "lat": 52.013978
        },
        "important": false,
        "avoid_types": []
    },
    {
        "name": "BY Мозырь",
        "from": {
            "lon": 29.240316,
            "lat": 52.028764
        },
        "to": {
            "lon": 29.334594,
            "lat": 52.12574
        },
        "important": false,
        "avoid_types": []
    },
    {
        "name": "BY Молодечно",
        "from": {
            "lon": 26.838923,
            "lat": 54.314368
        },
        "to": {
            "lon": 26.843386,
            "lat": 54.291679
        },
        "important": false,
        "avoid_types": []
    },
    {
        "name": "BY Новополоцк (СТ)",
        "from": {
            "lon": 28.592192,
            "lat": 55.503573
        },
        "to": {
            "lon": 28.648234,
            "lat": 55.529479
        },
        "important": false,
        "avoid_types": []
    },
    {
        "name": "BY Новополоцк",
        "from": {
            "lon": 28.648234,
            "lat": 55.529479
        },
        "to": {
            "lon": 28.780106,
            "lat": 55.490659
        },
        "important": false,
        "avoid_types": []
    },
    {
        "name": "BY Орша",
        "from": {
            "lon": 30.375912,
            "lat": 54.51966
        },
        "to": {
            "lon": 30.428762,
            "lat": 54.511055
        },
        "important": false,
        "avoid_types": []
    },
    {
        "name": "BY Пинск",
        "from": {
            "lon": 26.111915,
            "lat": 52.115816
        },
        "to": {
            "lon": 26.066351,
            "lat": 52.134747
        },
        "important": false,
        "avoid_types": []
    },
    {
        "name": "BY Пружаны",
        "from": {
            "lon": 24.464298,
            "lat": 52.554619
        },
        "to": {
            "lon": 24.411307,
            "lat": 52.584845
        },
        "important": false,
        "avoid_types": []
    },
    {
        "name": "BY Слуцк",
        "from": {
            "lon": 27.522928,
            "lat": 53.015251
        },
        "to": {
            "lon": 27.567388,
            "lat": 53.037451
        },
        "important": false,
        "avoid_types": []
    },
    {
        "name": "BY Сморгонь",
        "from": {
            "lon": 26.375703,
            "lat": 54.488404
        },
        "to": {
            "lon": 26.424833,
            "lat": 54.476819
        },
        "important": false,
        "avoid_types": []
    },
    {
        "name": "BY Щучин",
        "from": {
            "lon": 24.744406,
            "lat": 53.59394
        },
        "to": {
            "lon": 24.73402,
            "lat": 53.615585
        },
        "important": false,
        "avoid_types": []
    },
    {
        "name": "KZ Алматы (метро)",
        "from": {
            "lon": 76.867517,
            "lat": 43.230622
        },
        "to": {
            "lon": 76.944848,
            "lat": 43.270245
        },
        "important": false,
        "avoid_types": []
    },
    {
        "name": "KZ Алматы",
        "from": {
            "lon": 76.960791,
            "lat": 43.271703
        },
        "to": {
            "lon": 76.925128,
            "lat": 43.258594
        },
        "important": false,
        "avoid_types": []
    },
    {
        "name": "KZ Астана",
        "from": {
            "lon": 71.40679,
            "lat": 51.191694
        },
        "to": {
            "lon": 71.42224,
            "lat": 51.147015
        },
        "important": false,
        "avoid_types": []
    },
    {
        "name": "ABH Сухум",
        "from": {
            "lon": 40.981309,
            "lat": 43.020948
        },
        "to": {
            "lon": 41.022752,
            "lat": 43.002803
        },
        "important": false,
        "avoid_types": []
    },
    {
        "name": "BE Брюссель",
        "from": {
            "lon": 4.318162,
            "lat": 50.865449
        },
        "to": {
            "lon": 4.384047,
            "lat": 50.858017
        },
        "important": false,
        "avoid_types": []
    },
    {
        "name": "CH Сантьяго",
        "from": {
            "lon": -70.721551,
            "lat": -33.473131
        },
        "to": {
            "lon": -70.615036,
            "lat": -33.465218
        },
        "important": false,
        "avoid_types": []
    },
    {
        "name": "CZ Прага",
        "from": {
            "lon": 14.388369,
            "lat": 50.057809
        },
        "to": {
            "lon": 14.467724,
            "lat": 50.089965
        },
        "important": false,
        "avoid_types": []
    },
    {
        "name": "DE Берлин",
        "from": {
            "lon": 13.295301,
            "lat": 52.530006
        },
        "to": {
            "lon": 13.432458,
            "lat": 52.536392
        },
        "important": false,
        "avoid_types": []
    },
    {
        "name": "ES Бильбао",
        "from": {
            "lon": -2.934617,
            "lat": 43.251653
        },
        "to": {
            "lon": -2.963314,
            "lat": 43.282277
        },
        "important": false,
        "avoid_types": []
    },
    {
        "name": "ES Мадрид",
        "from": {
            "lon": -3.650034,
            "lat": 40.400783
        },
        "to": {
            "lon": -3.723511,
            "lat": 40.437528
        },
        "important": false,
        "avoid_types": []
    },
    {
        "name": "EE Эстония",
        "from": {
            "lon": 24.69882,
            "lat": 59.445835
        },
        "to": {
            "lon": 24.783508,
            "lat": 59.432038
        },
        "important": true,
        "avoid_types": []
    },
    {
        "name": "HU Budapest",
        "from": {
            "lon": 19.02382,
            "lat": 47.505733
        },
        "to": {
            "lon": 19.091326,
            "lat": 47.489242
        },
        "important": true,
        "avoid_types": []
    },
    {
        "name": "IT Милан",
        "from": {
            "lon": 9.151892,
            "lat": 45.455014
        },
        "to": {
            "lon": 9.204163,
            "lat": 45.475337
        },
        "important": false,
        "avoid_types": []
    },
    {
        "name": "IT Палермо",
        "from": {
            "lon": 13.375509,
            "lat": 38.093995
        },
        "to": {
            "lon": 13.350221,
            "lat": 38.133762
        },
        "important": false,
        "avoid_types": []
    },
    {
        "name": "IT Рим",
        "from": {
            "lon": 12.448314,
            "lat": 41.921504
        },
        "to": {
            "lon": 12.525497,
            "lat": 41.921452
        },
        "important": false,
        "avoid_types": []
    },
    {
        "name": "LT Вильнюс",
        "from": {
            "lon": 25.283526,
            "lat": 54.670384
        },
        "to": {
            "lon": 25.259554,
            "lat": 54.679714
        },
        "important": false,
        "avoid_types": []
    },
    {
        "name": "LU Люксембург",
        "from": {
            "lon": 6.145163,
            "lat": 49.624744
        },
        "to": {
            "lon": 6.116914,
            "lat": 49.599876
        },
        "important": true,
        "avoid_types": []
    },
    {
        "name": "NZ Auckland (ferry)",
        "from": {
            "lon": 174.766467,
            "lat": -36.84304
        },
        "to": {
            "lon": 174.796067,
            "lat": -36.832363
        },
        "important": false,
        "avoid_types": []
    },
    {
        "name": "NZ Auckland",
        "from": {
            "lon": 174.766467,
            "lat": -36.84304
        },
        "to": {
            "lon": 174.764422,
            "lat": -36.86701
        },
        "important": false,
        "avoid_types": []
    },
    {
        "name": "PL Варшава",
        "from": {
            "lon": 20.979334,
            "lat": 52.237062
        },
        "to": {
            "lon": 21.046625,
            "lat": 52.260452
        },
        "important": false,
        "avoid_types": []
    },
    {
        "name": "SU Швейцария",
        "from": {
            "lon": 8.517718,
            "lat": 47.343836
        },
        "to": {
            "lon": 8.548271,
            "lat": 47.400923
        },
        "important": false,
        "avoid_types": []
    },
    {
        "name": "SW Швеция",
        "from": {
            "lon": 18.072232,
            "lat": 59.283498
        },
        "to": {
            "lon": 18.070226,
            "lat": 59.341366
        },
        "important": false,
        "avoid_types": []
    },
    {
        "name": "UK Манчестер",
        "from": {
            "lon": -2.32128,
            "lat": 53.489308
        },
        "to": {
            "lon": -2.229999,
            "lat": 53.476618
        },
        "important": false,
        "avoid_types": []
    },
    {
        "name": "Москва_проверка метро",
        "from": {
            "lon": 37.494565,
            "lat": 55.88433
        },
        "to": {
            "lon": 37.742144,
            "lat": 55.608879
        },
        "important": false,
        "avoid_types": []
    },
    {
        "name": "СПБЛО-1",
        "from": {
            "lon": 30.205405,
            "lat": 59.857564
        },
        "to": {
            "lon": 30.357902,
            "lat": 60.054088
        },
        "important": false,
        "avoid_types": []
    },
    {
        "name": "СПБЛО-2",
        "from": {
            "lon": 30.205405,
            "lat": 59.857564
        },
        "to": {
            "lon": 30.410774,
            "lat": 60.026266
        },
        "important": false,
        "avoid_types": []
    },
    {
        "name": "СПБЛО-3",
        "from": {
            "lon": 29.899161,
            "lat": 59.880697
        },
        "to": {
            "lon": 30.386745,
            "lat": 59.880976
        },
        "important": false,
        "avoid_types": []
    },
    {
        "name": "СПБЛО-4",
        "from": {
            "lon": 30.348293,
            "lat": 59.92995
        },
        "to": {
            "lon": 30.393546,
            "lat": 59.716694
        },
        "important": false,
        "avoid_types": []
    },
    {
        "name": "СПБЛО-5",
        "from": {
            "lon": 31.042491,
            "lat": 59.931329
        },
        "to": {
            "lon": 30.605033,
            "lat": 59.752747
        },
        "important": false,
        "avoid_types": []
    },
    {
        "name": "СПБЛО-6",
        "from": {
            "lon": 31.042491,
            "lat": 59.931329
        },
        "to": {
            "lon": 30.501416,
            "lat": 60.337476
        },
        "important": false,
        "avoid_types": []
    },
    {
        "name": "СПБЛО-Новокрест",
        "from": {
            "lon": 30.280608,
            "lat": 59.942009
        },
        "to": {
            "lon": 30.212115,
            "lat": 59.973258
        },
        "important": false,
        "avoid_types": []
    }
]
